X,Y,Number,Name,Latitude,Longitude,District,Public_,Total_docks,ObjectId
-71.12852452,42.3602737,A32040,Honan Library,42.3602737,-71.12852452,Boston,Yes,15,1
-71.11467361,42.34414899,K32015,1200 Beacon St,42.34414899,-71.11467361,Brookline,Yes,15,2
-71.07304573,42.38004535,D32060,Hood Park,42.38004535,-71.07304573,Boston,Yes,23,3
-71.09651506,42.40721644,F32006,Hormel Stadium,42.40721644,-71.09651506,Medford,Yes,11,4
-71.09886996,42.33658555,B32033,Huntington Ave at Mass Art,42.33658555,-71.09886996,Boston,Yes,15,5
-71.13426981,42.38165061,M32044,Huron Ave At Vassal Lane,42.38165061,-71.13426981,Cambridge,Yes,19,6
-71.116012,42.29606705,C32089,Hyde Park Ave at Walk Hill St,42.29606705,-71.116012,Boston,Yes,15,7
-71.122509,42.2568376,E32013,Hyde Park Library,42.2568376,-71.122509,Boston,Yes,15,8
-71.10984161,42.32176526,E32003,Hyde Square - Barbara St at Centre St,42.32176526,-71.10984161,Boston,Yes,15,9
-71.028664,42.344827,C32020,ID Building East,42.344827,-71.028664,Boston,Yes,17,10
-71.031614,42.344796,C32021,ID Building West,42.344796,-71.031614,Boston,Yes,19,11
-71.063187,42.345901,C32025,Ink Block - Harrison Ave at Herald St,42.345901,-71.063187,Boston,Yes,25,12
-71.10026479,42.37426714,M32062,Inman Square at Springfield St.,42.37426714,-71.10026479,Cambridge,Yes,25,13
-71.12459779,42.36371276,A32011,Innovation Lab - 125 Western Ave at Batten Way,42.36371276,-71.12459779,Boston,Yes,19,14
-71.10014141,42.32293117,E32006,Jackson Square T Stop,42.32293117,-71.10014141,Boston,Yes,18,15
-71.11570891,42.30604563,D32052,Jamaica St at South St,42.30604563,-71.11570891,Boston,Yes,19,16
-71.12833211,42.34655124,K32004,JFK Crossing at Harvard St. / Thorndike St.,42.34655124,-71.12833211,Brookline,Yes,15,17
-71.05118036,42.32033974,C32013,JFK/UMass T Stop,42.32033974,-71.05118036,Boston,Yes,31,18
-71.0863096,42.36903567,M32083,John Ahern Field at Kennedy-Longfellow School,42.36903567,-71.0863096,Cambridge,Yes,19,19
-71.06041655,42.40616124,V32013,Kearins Playground,42.40616124,-71.06041655,Everett,Yes,11,20
-71.08216792,42.36356016,M32032,Kendall Street,42.36356016,-71.08216792,Cambridge,Yes,17,21
-71.08495474,42.36242784,M32004,Kendall T,42.36242784,-71.08495474,Cambridge,Yes,23,22
-71.097009,42.348706,B32010,Kenmore Square,42.348706,-71.097009,Boston,Yes,26,23
-71.08579015,42.36955298,M32065,Kennedy-Longfellow School 158 Spring St,42.36955298,-71.08579015,Cambridge,Yes,19,24
-70.89183301,42.51142784,T32006,Lafayette at Leach St,42.51142784,-70.89183301,Salem,Yes,11,25
-71.10057324,42.36346469,M32009,Lafayette Square at Mass Ave / Main St / Columbia St,42.36346469,-71.10057324,Cambridge,Yes,15,26
-71.10235287,42.34369056,B32015,Landmark Center - Brookline Ave at Park Dr,42.34369056,-71.10235287,Boston,Yes,15,27
-71.192861,42.330528,N32008,Langley Lot,42.330528,-71.192861,Newton,Yes,11,28
-71.10016808,42.34734473,B32058,Lansdowne T Stop,42.34734473,-71.10016808,Boston,Yes,27,29
-71.08255059,42.33759485,D32061,Lenox St at Kendall St,42.33759485,-71.08255059,Boston,Yes,17,30
-71.11901879,42.38674802,M32039,Lesley University,42.38674802,-71.11901879,Cambridge,Yes,15,31
-71.04030132,42.36567871,A32057,Lewis Mall Wharf,42.36567871,-71.04030132,Boston,Yes,21,32
-71.050877,42.363871,D32006,Lewis Wharf at Atlantic Ave,42.363871,-71.050877,Boston,Yes,19,33
-71.17569387,42.36466403,W32006,160 Arsenal St,42.36466403,-71.17569387,Watertown,Yes,11,34
-71.130516,42.397828,M32025,Linear Park - Mass. Ave. at Cameron Ave. ,42.397828,-71.130516,Cambridge,Yes,19,35
-71.12840831,42.36447457,A32019,175 N Harvard St,42.36447457,-71.12840831,Boston,Yes,17,36
-71.14906519,42.40935396,L32002,Linwood St at Minuteman Bikeway,42.40935396,-71.14906519,Arlington,Yes,11,37
-71.1065,42.338629,A32004,Longwood Ave at Binney St,42.338629,-71.1065,Boston,Yes,15,38
-71.10878613,42.38032335,S32035,191 Beacon St,42.38032335,-71.10878613,Somerville,Yes,19,39
-71.11387163,42.3572185,M32022,Lower Cambridgeport at Magazine St / Riverside Rd,42.3572185,-71.11387163,Cambridge,Yes,19,40
-71.095003,42.28887,C32094,2 Hummingbird Lane at Olmsted Green,42.28887,-71.095003,Boston,Yes,17,41
-71.10594004,42.3977834,S32013,Magoun Square at Trum Field,42.3977834,-71.10594004,Somerville,Yes,19,42
-71.064608,42.375603,D32020,Main St at Austin St,42.375603,-71.064608,Boston,Yes,11,43
-71.10402523,42.38100143,S32023,30 Dane St,42.38100143,-71.10402523,Somerville,Yes,15,44
-71.104412,42.370803,M32026,359 Broadway - Broadway at Fayette Street,42.370803,-71.104412,Cambridge,Yes,23,45
-71.10606909,42.38322727,S32049,515 Somerville Ave (Temp. Winter Location),42.38322727,-71.10606909,Somerville,Yes,19,46
-71.143946,42.390821,M32088,55 Wheeler Street,42.390821,-71.143946,Cambridge,Yes,23,47
-71.08582377,42.34366582,B32005,Christian Science Plaza - Massachusetts Ave at Westland Ave,42.34366582,-71.08582377,Boston,Yes,19,48
-71.11924,42.2681,C32106,555 Metropolitan Ave,42.2681,-71.11924,Boston,Yes,18,49
-71.109725,42.28578,C32105,606 American Legion Hwy at Canterbury St,42.28578,-71.109725,Boston,Yes,18,50
-71.03987017,42.34178089,C32091,645 Summer St,42.34178089,-71.03987017,Boston,Yes,19,51
-71.070629,42.380857,D32036,Main St at Baldwin St,42.380857,-71.070629,Boston,Yes,19,52
-71.14871614,42.37500235,M32054,699 Mt Auburn St,42.37500235,-71.14871614,Cambridge,Yes,25,53
-71.06823265,42.41143223,V32001,7 Acre Park,42.41143223,-71.06823265,Everett,Yes,15,54
-71.10391524,42.34960945,B32060,700 Commonwealth Ave.,42.34960945,-71.10391524,Boston,Yes,16,55
-71.15412891,42.38078817,M32060,700 Huron Ave,42.38078817,-71.15412891,Cambridge,Yes,19,56
-71.0801376,42.36550729,M32064,75 Binney St,42.36550729,-71.0801376,Cambridge,Yes,19,57
-71.143941,42.3936,M32058,84 Cambridgepark Dr,42.3936,-71.143941,Cambridge,Yes,27,58
-71.02390923,42.39841773,H32006,855 Broadway,42.39841773,-71.02390923,Chelsea,Yes,11,59
-71.14421904,42.39522187,M32084,87-101 Cambridgepark Drive,42.39522187,-71.14421904,Cambridge,Yes,23,60
-71.1099878,42.36895181,M32073,955 Mass Ave,42.36895181,-71.1099878,Cambridge,Yes,19,61
-71.0689446,42.33664795,C32061,Albany St at E. Brookline St,42.33664795,-71.0689446,Boston,Yes,15,62
-71.14260614,42.39558846,M32046,Alewife MBTA at Steel Place,42.39558846,-71.14260614,Cambridge,Yes,19,63
-71.139459,42.396105,M32033,Alewife Station at Russell Field,42.396105,-71.139459,Cambridge,Yes,23,64
-71.11687703,42.27881158,C32079,American Legion Hwy at Cummins Hwy,42.27881158,-71.11687703,Boston,Yes,14,65
-71.0875672,42.3636929,M32059,Ames St at Broadway,42.3636929,-71.0875672,Cambridge,Yes,19,66
-71.08822,42.3625,M32037,Ames St at Main St,42.3625,-71.08822,Cambridge,Yes,19,67
-71.0504394,42.36044136,B32004,Aquarium T Stop - 200 Atlantic Ave,42.36044136,-71.0504394,Boston,Yes,23,68
-71.12119539,42.29266593,C32048,Archdale Rd at Washington St,42.29266593,-71.12119539,Boston,Yes,15,69
-71.15764854,42.36277389,W32004,Arsenal Yards,42.36277389,-71.15764854,Watertown,Yes,14,70
-71.0641389,42.2856944,C32062,Ashmont T Stop,42.2856944,-71.0641389,Boston,Yes,15,71
-71.07746601,42.39223284,S32018,Assembly Square T,42.39223284,-71.07746601,Somerville,Yes,15,72
-71.12608128,42.4175909,ZZ32996,Auburn St. at Mystic River,42.4175909,-71.12608128,Medford,Yes,11,73
-71.24775946,42.34805541,N32015,Auburndale,42.34805541,-71.24775946,Newton,Yes,15,74
-71.108279,42.350406,A32003,B.U. Central - 725 Comm. Ave.,42.350406,-71.108279,Boston,Yes,11,75
-71.07657015,42.34807412,C32003,Back Bay T Stop - Dartmouth St at Stuart St,42.34807412,-71.07657015,Boston,Yes,19,76
-71.18604537,42.35711921,N32003,Bacon St at Washington St,42.35711921,-71.18604537,Newton,Yes,11,77
-71.11111522,42.39936816,S32007,Ball Sq,42.39936816,-71.11111522,Somerville,Yes,19,78
-71.0901582,42.3294633,B32055,Bartlett St at John Elliot Sq,42.3294633,-71.0901582,Boston,Yes,15,79
-71.05425954,42.30367409,C32108,Beach St at Freeport St,42.30367409,-71.05425954,Boston,Yes,19,80
-71.20668411,42.33006232,N32012,Beacon at Walnut,42.33006232,-71.20668411,Newton,Yes,15,81
-71.069849,42.356052,D32024,Beacon St at Charles St,42.356052,-71.069849,Boston,Yes,19,82
-71.13894682,42.3382668,K32002,Beacon St at Tappan St,42.3382668,-71.13894682,Brookline,Yes,15,83
-71.1367213,42.28634589,C32059,Belgrade Ave at Walworth St,42.28634589,-71.1367213,Boston,Yes,14,84
-71.0334456,42.39319611,H32002,Bellingham Square,42.39319611,-71.0334456,Chelsea,Yes,11,85
-71.01619095,42.38353252,A32028,Bennington St at Byron St,42.38353252,-71.01619095,Boston,Yes,15,86
-71.01063069,42.38522394,A32039,Bennington St at Constitution Beach,42.38522394,-71.01063069,Boston,Yes,15,87
-71.08995434,42.37207658,M32067,Berkshire Street at Cambridge Street,42.37207658,-71.08995434,Cambridge,Yes,19,88
-71.08633604,42.36608797,M32027,Binney St / Sixth St,42.36608797,-71.08633604,Cambridge,Yes,19,89
-71.09372552,42.27462067,C32044,Blue Hill Ave at Almont St,42.27462067,-71.09372552,Boston,Yes,19,90
-71.090986,42.286012,C32092,Blue Hill Ave at Havelock St,42.286012,-71.090986,Boston,Yes,18,91
-71.057629,42.35892,B32008,Boston City Hall - 28 State St,42.35892,-71.057629,Boston,Yes,25,92
-71.16708934,42.33987892,N32009,Boston College T,42.33987892,-71.16708934,Newton,Yes,17,93
-71.04535997,42.34776345,D32018,Boston Convention and Exhibition Center - Summer St at West Side Dr,42.34776345,-71.04535997,Boston,Yes,23,94
-71.04102008,42.37331213,A32036,Boston East - 126 Border St,42.37331213,-71.04102008,Boston,Yes,15,95
-71.14167538,42.35656092,A32045,Boston Landing,42.35656092,-71.14167538,Boston,Yes,17,96
-71.06512249,42.30785224,B32031,Bowdoin St at Quincy St,42.30785224,-71.06512249,Boston,Yes,15,97
-71.07046366,42.35206005,D32007,Boylston St at Arlington St,42.35206005,-71.07046366,Boston,Yes,31,98
-71.07329249,42.35114198,D32013,Boylston St at Berkeley St,42.35114198,-71.07329249,Boston,Yes,15,99
-71.07946779,42.34958942,D32046,Boylston St at Exeter St,42.34958942,-71.07946779,Boston,Yes,19,100
-71.08236909,42.34880382,C32008,Boylston St at Fairfield St,42.34880382,-71.08236909,Boston,Yes,19,101
-71.09732501,42.34465063,B32034,Boylston St at Jersey St,42.34465063,-71.09732501,Boston,Yes,15,102
-71.11966431,42.37433925,M32087,Church St,42.37433925,-71.11966431,Cambridge,Yes,15,103
-71.08678415,42.34740621,B32018,Boylston St at Massachusetts Ave,42.34740621,-71.08678415,Boston,Yes,15,104
-71.09117389,42.3754476,S32050,Boynton Yards at 101 South Street,42.3754476,-71.09117389,Somerville,Yes,19,105
-71.03276253,42.37410622,A32032,Bremen St at Marion St,42.37410622,-71.03276253,Boston,Yes,11,106
-70.88971138,42.52810052,T32016,Bridge Street Neck,42.52810052,-70.88971138,Salem,Yes,11,107
-71.10407918,42.33462893,B32013,Brigham Circle - Francis St at Huntington Ave,42.33462893,-71.10407918,Boston,Yes,15,108
-71.15027189,42.34894857,D32028,Brighton Center - Washington St at Cambridge St,42.34894857,-71.15027189,Boston,Yes,16,109
-71.13776207,42.36154571,A32005,Brighton Mills - 370 Western Ave,42.36154571,-71.13776207,Boston,Yes,15,110
-71.08287079,42.3630455,M32082,Broad Canal Way at Third Street,42.3630455,-71.08287079,Cambridge,Yes,19,111
-71.06373843,42.3983606,V32011,Broadway at Beacham St,42.3983606,-71.06373843,Everett,Yes,15,112
-71.09850592,42.3951715,S32016,Broadway at Central St,42.3951715,-71.09850592,Somerville,Yes,19,113
-71.03085594,42.39453079,H32004,Broadway at Gerrish Ave,42.39453079,-71.03085594,Chelsea,Yes,11,114
-71.08738632,42.36412659,Z32998,Broadway at Kittie Knox Bike Path,42.36412659,-71.08738632,Cambridge,Yes,23,115
-71.0654676,42.39648358,V32004,Broadway at Lynde St,42.39648358,-71.0654676,Everett,Yes,15,116
-71.05260458,42.41034691,V32008,Broadway at Maple St,42.41034691,-71.05260458,Everett,Yes,13,117
-71.0782814,42.38614141,S32014,Broadway St at Mt Pleasant St,42.38614141,-71.0782814,Somerville,Yes,19,118
-71.0580343,42.34304858,C32053,Broadway T Stop,42.34304858,-71.0580343,Boston,Yes,19,119
-71.12046447,42.33376473,K32005,Brookline Town Hall,42.33376473,-71.12046447,Brookline,Yes,15,120
-71.11626681,42.33274392,K32003,Brookline Village - Station Street at MBTA,42.33274392,-71.11626681,Brookline,Yes,19,121
-71.06905997,42.37408991,A32023,Bunker Hill Community College,42.37408991,-71.06905997,Boston,Yes,23,122
-71.100694,42.345733,B32020,Burlington Ave at Brookline Ave,42.345733,-71.100694,Boston,Yes,15,123
-71.20236039,42.36514871,N32011,California at Chapel,42.36514871,-71.20236039,Newton,Yes,12,124
-71.076198,42.371141,M32077,Cambridge Crossing at North First Street,42.371141,-71.076198,Cambridge,Yes,23,125
-71.09759867,42.37119728,M32052,Cambridge Dept. of Public Works -147 Hampshire St.,42.37119728,-71.09759867,Cambridge,Yes,19,126
-71.111075,42.373379,M32013,Cambridge Main Library at Broadway / Trowbridge St,42.373379,-71.111075,Cambridge,Yes,19,127
-71.094445,42.372969,M32007,Cambridge St - at Columbia St / Webster Ave,42.372969,-71.094445,Cambridge,Yes,15,128
-71.06528744,42.36125722,D32000,Cambridge St at Joy St,42.36125722,-71.06528744,Boston,Yes,15,129
-71.07679278,42.36707407,M32019,CambridgeSide Galleria - CambridgeSide PL at Land Blvd,42.36707407,-71.07679278,Cambridge,Yes,15,130
-71.03070972,42.39813565,H32001,Cary Square,42.39813565,-71.03070972,Chelsea,Yes,12,131
-71.0602212,42.2796076,C23109,Cedar Grove T Stop,42.2796076,-71.0602212,Boston,Yes,18,132
-71.105495,42.366426,M32012,Central Sq Post Office / Cambridge City Hall at Mass Ave / Pleasant St,42.366426,-71.105495,Cambridge,Yes,17,133
-71.1031,42.36507,M32011,Central Square at Mass Ave / Essex St,42.36507,-71.1031,Cambridge,Yes,19,134
-71.03918549,42.37544913,A32041,Central Square East Boston,42.37544913,-71.03918549,Boston,Yes,15,135
-71.1934421,42.3362358,N32018,Centre St at Commonwealth Ave,42.3362358,-71.1934421,Newton,Yes,11,136
-71.15728851,42.28277901,C32086,Centre St at Parkway YMCA,42.28277901,-71.15728851,Boston,Yes,17,137
-71.15344755,42.28633199,C32085,Centre St at W. Roxbury Post Office,42.28633199,-71.15344755,Boston,Yes,19,138
-71.18641943,42.35574335,N32000,Centre St at Washington St,42.35574335,-71.18641943,Newton,Yes,11,139
-71.07118962,42.36079297,D32016,Charles Circle - Charles St at Cambridge St,42.36079297,-71.07118962,Boston,Yes,19,140
-71.054812,42.37412455,D32039,Charlestown Navy Yard,42.37412455,-71.054812,Boston,Yes,23,141
-71.03857018,42.39022671,H32003,Chelsea Square,42.39022671,-71.03857018,Chelsea,Yes,11,142
-71.04731441,42.40336946,V32016,Chelsea St at Vine St,42.40336946,-71.04731441,Everett,Yes,11,143
-71.03987179,42.39636528,H32005,Chelsea Station,42.39636528,-71.03987179,Chelsea,Yes,11,144
-71.07200496,42.37197678,M32049,Child Street at Brian P. Murphy Staircase,42.37197678,-71.07200496,Cambridge,Yes,23,145
-71.059367,42.351356,D32015,Chinatown Gate Plaza,42.351356,-71.059367,Boston,Yes,19,146
-71.062679,42.352409,D32019,Chinatown T Stop,42.352409,-71.062679,Boston,Yes,19,147
-71.09171927,42.29704126,C32099,Circuit Drive at American Legion Hwy,42.29704126,-71.09171927,Boston,Yes,19,148
-71.110444,42.411709,F32001,Main St at Brooks Park,42.411709,-71.110444,Medford,Yes,11,149
-71.132446,42.406302,S32010,Clarendon Hill at Broadway,42.406302,-71.132446,Somerville,Yes,15,150
-71.06383499,42.37487847,D32038,Main St at Thompson Sq,42.37487847,-71.06383499,Boston,Yes,15,151
-71.12444,42.2556,C32104,Cleary Sq,42.2556,-71.12444,Boston,Yes,16,152
-71.0915669,42.3629016,M32080,Main Street/Albany Street/Technology Square,42.3629016,-71.0915669,Cambridge,Yes,23,153
-71.1506152,42.33554308,B32035,Cleveland Circle,42.33554308,-71.1506152,Boston,Yes,15,154
-71.073179,42.426541,G32001,Malden Center T Station,42.426541,-71.073179,Malden,Yes,11,155
-71.05524927,42.36070284,D32057,Clinton St at North St,42.36070284,-71.05524927,Boston,Yes,18,156
-71.06393695,42.42653766,G32003,Malden High School,42.42653766,-71.06393695,Malden,Yes,11,157
-71.071111,42.2873611,C32055,Codman Square Library,42.2873611,-71.071111,Boston,Yes,17,158
-71.12070564,42.34012243,K32012,Marion St at Harvard St,42.34012243,-71.12070564,Brookline,Yes,15,159
-71.10061884,42.34011512,B32006,Colleges of the Fenway - Fenway at Avenue Louis Pasteur,42.34011512,-71.10061884,Boston,Yes,14,160
-71.10196,42.324173,E32012,Martha Eliot Health Center,42.324173,-71.10196,Boston,Yes,16,161
-71.0729,42.309572,B32029,Columbia Rd at Ceylon St,42.309572,-71.0729,Boston,Yes,15,162
-71.09670274,42.36135838,M32061,Mass Ave at Albany St,42.36135838,-71.09670274,Cambridge,Yes,18,163
-71.05060093,42.33023071,C32052,Columbia Rd at Tierney Community Center,42.33023071,-71.05060093,Boston,Yes,19,164
-71.12260755,42.39120972,M32056,Mass Ave at Hadley/Walden,42.39120972,-71.12260755,Cambridge,Yes,19,165
-71.07648162,42.34474225,C32077,Columbus Ave at W. Canton St,42.34474225,-71.07648162,Boston,Yes,19,166
-71.08336953,42.34135616,C32063,Mass Ave T Station,42.34135616,-71.08336953,Boston,Yes,14,167
-71.11903489,42.35169202,A32002,Commonwealth Ave at Agganis Way,42.35169202,-71.11903489,Boston,Yes,15,168
-71.10044184,42.36356499,M32085,Mass Ave/Lafayette Square,42.36356499,-71.10044184,Cambridge,Yes,15,169
-71.12126246,42.35154735,K32006,Commonwealth Ave At Babcock St,42.35154735,-71.12126246,Brookline,Yes,15,170
-71.0816197,42.340835,C32004,Massachusetts Ave at Columbus Ave,42.340835,-71.0816197,Boston,Yes,13,171
-71.15168806,42.34024645,D32033,Commonwealth Ave at Chiswick Rd,42.34024645,-71.15168806,Boston,Yes,19,172
-71.09325,42.2773889,C32050,Mattapan Library,42.2773889,-71.09325,Boston,Yes,15,173
-71.13275303,42.34922469,A32017,Commonwealth Ave at Griggs St,42.34922469,-71.13275303,Boston,Yes,15,174
-71.093641,42.267902,C32045,Mattapan T Stop,42.267902,-71.093641,Boston,Yes,15,175
-71.13997217,42.34835863,D32034,Commonwealth Ave at Kelton St,42.34835863,-71.13997217,Boston,Yes,15,176
-71.03977829,42.36884408,A32030,Maverick Square - Lewis Mall,42.36884408,-71.03977829,Boston,Yes,33,177
-71.03335975,42.36774122,A32044,Maverick St at Massport Path,42.36774122,-71.03335975,Boston,Yes,15,178
-70.906271,42.520136,T32013,Community Life Center,42.520136,-70.906271,Salem,Yes,9,179
-70.89570075,42.5180352,T32004,Mayor Salvo Path at Mill St,42.5180352,-70.89570075,Salem,Yes,11,180
-71.11133695,42.39407224,S32022,Community Path at Cedar Street,42.39407224,-71.11133695,Somerville,Yes,15,181
-71.05889978,42.31870275,C32112,Meaney Playground - Pleasant St at E Cottage St,42.31870275,-71.05889978,,Yes,17,182
-71.105587,42.392525,S32040,Community Path at Lowell St,42.392525,-71.105587,Somerville,Yes,19,183
-71.108102,42.417724,F32002,Medford Sq - Riverside Ave at River St,42.417724,-71.108102,Medford,Yes,11,184
-71.1538877,42.390719,M32074,Concord Ave at Spinelli Place,42.390719,-71.1538877,Cambridge,Yes,19,185
-71.06055722,42.38042947,D32037,Medford St at Charlestown BCYF,42.38042947,-71.06055722,Boston,Yes,19,186
-71.05752244,42.36041775,D32009,Congress St at Boston City Hall,42.36041775,-71.05752244,Boston,Yes,23,187
-71.093198,42.3581,M32006,MIT at Mass Ave / Amherst St,42.3581,-71.093198,Cambridge,Yes,27,188
-71.03764,42.3481,C32032,Congress St at Northern Ave,42.3481,-71.03764,Boston,Yes,15,189
-71.10853672,42.38363895,S32004,Conway Park - Somerville Avenue,42.38363895,-71.10853672,Somerville,Yes,23,190
-71.08669817,42.36054174,M32070,MIT Carleton St at Amherst St,42.36054174,-71.08669817,Cambridge,Yes,27,191
-71.1077106,42.3834575,S32045,Conway Park @ Bleachery Ct (Temp Winter Station),42.3834575,-71.1077106,Somerville,Yes,19,192
-71.08551858,42.36085937,M32071,MIT Hayward St at Amherst St,42.36085937,-71.08551858,Cambridge,Yes,27,193
-71.123338,42.341598,K32001,Coolidge Corner - Beacon St at Centre St,42.341598,-71.123338,Brookline,Yes,19,194
-71.10129476,42.3595732,M32041,MIT Pacific St at Purrington St,42.3595732,-71.10129476,Cambridge,Yes,19,195
-71.15683131,42.37207611,W32001,Coolidge Sq.,42.37207611,-71.15683131,Watertown,Yes,12,196
-71.09115601,42.36213123,M32005,MIT Stata Center at Vassar St / Main St,42.36213123,-71.09115601,Cambridge,Yes,35,197
-71.07739207,42.34992828,D32005,Copley Square - Dartmouth St at Boylston St,42.34992828,-71.07739207,Boston,Yes,28,198
-71.10394478,42.35560121,M32042,MIT Vassar St,42.35560121,-71.10394478,Cambridge,Yes,53,199
-71.09126061,42.32143814,B32023,MLK Blvd at Washington St,42.32143814,-71.09126061,Boston,Yes,15,200
-71.07585847,42.37197726,M32086,Morgan Ave at North First St,42.37197726,-71.07585847,Cambridge,Yes,23,201
-71.080286,42.278747,C32103,Morton St at Gallivan Blvd,42.278747,-71.080286,Boston,Yes,15,202
-71.056067,42.362811,D32010,Cross St at Hanover St,42.362811,-71.056067,Boston,Yes,19,203
-71.13320231,42.37478629,M32043,Mt Auburn,42.37478629,-71.13320231,Cambridge,Yes,19,204
-71.0728687,42.35553628,D32017,Mugar Way at Beacon St,42.35553628,-71.0728687,Boston,Yes,19,205
-71.09746183,42.26998847,Z32999,Cummins Highway at Blue Hill Ave T Stop,42.26998847,-71.09746183,Boston,Yes,14,206
-71.023739,42.336448,C32023,Murphy Skating Rink - 1880 Day Blvd,42.336448,-71.023739,Boston,Yes,19,207
-71.11543,42.309054,E32001,Curtis Hall - South St at Centre St,42.309054,-71.11543,Boston,Yes,15,208
-71.07116282,42.36769018,M32045,Museum of Science,42.36769018,-71.07116282,Cambridge,Yes,19,209
-71.12536222,42.32784317,K32009,Cypress St at Clark Playground,42.32784317,-71.12536222,Brookline,Yes,15,210
-71.064263,42.365673,A32025,Nashua Street at Red Auerbach Way,42.365673,-71.064263,Boston,Yes,36,211
-71.10809952,42.36178044,M32030,Dana Park,42.36178044,-71.10809952,Cambridge,Yes,19,212
-71.091946,42.316902,B32027,NCAAA - Walnut Ave at Crawford St,42.316902,-71.091946,Boston,Yes,15,213
-71.132788,42.388966,M32031,Danehy Park,42.388966,-71.132788,Cambridge,Yes,17,214
-71.1467354,42.35732922,D32001,New Balance - 20 Guest St,42.35732922,-71.1467354,Boston,Yes,14,215
-71.066498,42.326599,C32022,Newmarket Square T Stop - Massachusetts Ave at Newmarket Square,42.326599,-71.066498,Boston,Yes,15,216
-71.139019,42.389456,M32075,Danehy Park at New Street,42.389456,-71.139019,Cambridge,Yes,19,217
-71.20637298,42.32206566,N32010,Newton Highlands T,42.32206566,-71.20637298,Newton,Yes,15,218
-71.07782811,42.35096144,D32045,Dartmouth St at Newbury St,42.35096144,-71.07782811,Boston,Yes,19,219
-71.20779455,42.33620337,N32013,Newton Library,42.33620337,-71.20779455,Newton,Yes,13,220
-71.123024,42.396969,S32006,Davis Square,42.396969,-71.123024,Somerville,Yes,25,221
-71.027733,42.379295,A32051,Day Sq,42.379295,-71.027733,Boston,Yes,16,222
-71.15656637,42.36762049,W32007,Nichols Ave. at Watertown Greenway,42.36762049,-71.15656637,Watertown,Yes,12,223
-71.0972821,42.34924377,B32037,Deerfield St at Commonwealth Ave,42.34924377,-71.0972821,Boston,Yes,19,224
-71.201462,42.36068456,N32002,Nonantum Library,42.36068456,-71.201462,Newton,Yes,15,225
-70.90614259,42.52989965,T32015,North St at Liberty Hill Ave,42.52989965,-70.90614259,Salem,Yes,11,226
-70.89139044,42.52009618,T32018,Derby Street,42.52009618,-70.89139044,Salem,Yes,11,227
-71.067793,42.42386,G32002,Northern Strand at Main St,42.42386,-71.067793,Malden,Yes,11,228
-71.14797131,42.39790817,M32066,Discovery Park - 30 Acorn Park Drive,42.39790817,-71.14797131,Cambridge,Yes,23,229
-71.166491,42.35057,D32031,Oak Square - 615 Washington St,42.35057,-71.166491,Boston,Yes,13,230
-71.05737627,42.34404051,C32009,Dorchester Ave at Gillette Park,42.34404051,-71.05737627,Boston,Yes,15,231
-71.10841334,42.35766248,M32076,Old Morse Park at Putnam Ave,42.35766248,-71.10841334,Cambridge,Yes,15,232
-71.062571,42.291718,C32066,Dorchester Ave at King St,42.291718,-71.062571,Boston,Yes,15,233
-71.0613513,42.35847764,B32061,One Beacon St,42.35847764,-71.0613513,Boston,Yes,16,234
-71.08386572,42.32984299,B32017,Dudley Square - Bolling Building,42.32984299,-71.08386572,Boston,Yes,0,235
-71.10446509,42.3339227,B32036,One Brigham Circle,42.3339227,-71.10446509,Boston,Yes,15,236
-71.075354,42.325333,C32015,Dudley Town Common - Mt Pleasant Ave at Blue Hill Ave,42.325333,-71.075354,Boston,Yes,15,237
-71.08311072,42.36224179,M32003,One Broadway / Kendall Sq at Main St / 3rd St,42.36224179,-71.08311072,Cambridge,Yes,23,238
-71.039431,42.369536,A32031,East Boston Neighborhood Health Center - 20 Maverick Square,42.369536,-71.039431,Boston,Yes,16,239
-71.08318716,42.38762811,S32017,East Somerville Library (Broadway and Illinois),42.38762811,-71.08318716,Somerville,Yes,15,240
-71.08714389,42.38717463,S32038,Edgerly Education Center,42.38717463,-71.08714389,Somerville,Yes,15,241
-71.068607,42.378965,A32022,Edwards Playground - Main St at Eden St,42.378965,-71.068607,Boston,Yes,19,242
-71.069957,42.369885,M32034,EF - North Point Park,42.369885,-71.069957,Cambridge,Yes,23,243
-71.098634,42.315692,E32004,Egleston Square - Atherton St at Washington St,42.315692,-71.098634,Boston,Yes,15,244
-71.0724476,42.39329263,V32005,Encore,42.39329263,-71.0724476,Everett,Yes,15,245
-70.905535,42.516223,T32011,Essex St at Dalton Parkway,42.516223,-70.905535,Salem,Yes,11,246
-71.05645001,42.40701602,V32003,Everett Square (Broadway at Chelsea St),42.40701602,-71.05645001,Everett,Yes,14,247
-71.0445714,42.35339051,A32000,Fan Pier,42.35339051,-71.0445714,Boston,Yes,15,248
-71.02495,42.3334,C32051,Farragut Rd at E. 6th St,42.3334,-71.02495,Boston,Yes,23,249
-71.06068976,42.29963349,C32041,Fields Corner T Stop,42.29963349,-71.06068976,Boston,Yes,15,250
-71.08767617,42.33420351,B32064,Flat 9 at Whittier,42.33420351,-71.08767617,Boston,Yes,15,251
-71.09169,42.366277,M32002,One Kendall Square at Hampshire St / Portland St,42.366277,-71.09169,Cambridge,Yes,19,252
-71.08071685,42.3930184,S32047,Foley St at Grand Union Blvd,42.3930184,-71.08071685,Somerville,Yes,19,253
-71.08043551,42.36161932,M32053,One Memorial Drive,42.36161932,-71.08043551,Cambridge,Yes,19,254
-71.114249,42.300923,E32010,Forest Hills,42.300923,-71.114249,Boston,Yes,40,255
-70.88693,42.506395,T32010,Forest River Park,42.506395,-70.88693,Salem,Yes,11,256
-71.006098,42.386781,A32035,Orient Heights T Stop - Bennington St at Saratoga St,42.386781,-71.006098,Boston,Yes,19,257
-71.090511,42.339202,B32062,Forsyth St at Huntington Ave,42.339202,-71.090511,Boston,Yes,15,258
-71.09039426,42.39108438,S32015,Foss Park,42.39108438,-71.09039426,Somerville,Yes,15,259
-70.9927243,42.40715656,R32002,Orr Sq (Shirley Ave),42.40715656,-70.9927243,Revere,Yes,11,260
-71.07929528,42.30412793,C32037,Four Corners - 157 Washington St,42.30412793,-71.07929528,Boston,Yes,11,261
-71.123413,42.40449,S32009,Packard Ave at Powderhouse Blvd,42.40449,-71.123413,Somerville,Yes,15,262
-71.07820988,42.30321535,C32111,Four Corners/Geneva T Stop,42.30321535,-71.07820988,Boston,Yes,15,263
-71.123831,42.352261,A32012,Packard's Corner - Commonwealth Ave at Brighton Ave,42.352261,-71.123831,Boston,Yes,27,264
-71.092225,42.309796,C32027,Franklin Park - Seaver St at Humboldt Ave,42.309796,-71.092225,Boston,Yes,15,265
-71.085347,42.303469,C32030,Franklin Park Zoo - Franklin Park Rd at Blue Hill Ave,42.303469,-71.085347,Boston,Yes,14,266
-71.105301,42.347241,A32008,Park Dr at Buswell St,42.347241,-71.105301,Boston,Yes,15,267
-71.14347895,42.38267828,M32051,Fresh Pond Reservation,42.38267828,-71.14347895,Cambridge,Yes,17,268
-71.06781138,42.35182807,D32042,Park Plaza at Charles St S.,42.35182807,-71.06781138,Boston,Yes,19,269
-71.0885418,42.3664204,M32078,Galileo Galilei Way at Fulkerson St/Binney St,42.3664204,-71.0885418,Cambridge,Yes,19,270
-71.09261138,42.33848849,Z32997,Parker St at Huntington Ave,42.33848849,-71.09261138,Boston,Yes,19,271
-71.08974038,42.36300378,M32072,Galileo Galilei Way at Main Street,42.36300378,-71.08974038,Cambridge,Yes,19,272
-71.05466698,42.28297568,C32040,Gallivan Blvd at Adams St,42.28297568,-71.05466698,Boston,Yes,15,273
-71.10341903,42.37927325,S32034,Perry Park,42.37927325,-71.10341903,Somerville,Yes,19,274
-71.04536798,42.31886468,C32090,Geiger Gibson Community Health Center,42.31886468,-71.04536798,Boston,Yes,19,275
-71.0446705,42.3502102,C32107,Pier 4 Blvd at Autumn Ln,42.3502102,-71.0446705,Boston,Yes,19,276
-71.0946444,42.3867355,S32046,Gilman Square T at Medford St,42.3867355,-71.0946444,Somerville,Yes,19,277
-71.04419768,42.4203487,V32009,Pope John High School,42.4203487,-71.04419768,Everett,Yes,15,278
-71.04479656,42.41427294,V32006,Glendale Square (Ferry St at Broadway),42.41427294,-71.04479656,Everett,Yes,15,279
-71.119084,42.387995,M32029,Porter Square Station,42.387995,-71.119084,Cambridge,Yes,19,280
-70.910528,42.520897,T32014,Goodhue St at Grove St,42.520897,-70.910528,Salem,Yes,11,281
-71.02876782,42.36411904,A32050,Porzio Park,42.36411904,-71.02876782,Boston,Yes,17,282
-71.08634234,42.3730798,M32081,Gore Street at Lambert Street,42.3730798,-71.08634234,Cambridge,Yes,19,283
-71.116772,42.400877,S32008,Powder House Circle - Nathan Tufts Park,42.400877,-71.116772,Somerville,Yes,15,284
-71.0355854,42.37057753,A32049,Gove St at Orleans St,42.37057753,-71.0355854,Boston,Yes,19,285
-71.08065777,42.34652004,C32007,Prudential Center - 101 Huntington Ave,42.34652004,-71.08065777,Boston,Yes,18,286
-71.05979576,42.3598254,B32032,Government Center - Cambridge St at Court St,42.3598254,-71.05979576,Boston,Yes,35,287
-71.053181,42.354659,A32026,Purchase St at Pearl St,42.354659,-71.053181,Boston,Yes,19,288
-71.12449831,42.3829443,M32068,Graham and Parks School ? Linnaean St at Walker St,42.3829443,-71.12449831,Cambridge,Yes,18,289
-71.15336637,42.41606457,L32001,Railroad Lot and Minuteman Bikeway,42.41606457,-71.15336637,Arlington,Yes,11,290
-71.12761001,42.38736954,M32079,Raymond Park at Walden St,42.38736954,-71.12761001,Cambridge,Yes,19,291
-71.0429,42.408156,V32015,Gramsdorf Playground,42.408156,-71.0429,Everett,Yes,14,292
-71.107341,42.310579,E32005,Green Street T Stop - Green St at Amory St,42.310579,-71.107341,Boston,Yes,23,293
-71.080952,42.30791,B32028,Grove Hall Library - 41 Geneva Ave,42.30791,-71.080952,Boston,Yes,15,294
-71.12011306,42.39638681,S32019,Grove St at Community Path,42.39638681,-71.12011306,Somerville,Yes,15,295
-71.09124541,42.42333137,F32005,Haines Square,42.42333137,-71.09124541,Medford,Yes,11,296
-71.0528183,42.4153271,V32012,Hale Park,42.4153271,-71.0528183,Everett,Yes,11,297
-71.06019938,42.30981925,C32113,Hancock St at Pleasant St,42.30981925,-71.06019938,,Yes,19,298
-71.08152866,42.41081837,F32004,Harris Park,42.41081837,-71.08152866,Medford,Yes,11,299
-71.0620996,42.3494261,D32043,Harrison Ave at Bennet St,42.3494261,-71.0620996,Boston,Yes,17,300
-71.06975,42.339194,C32093,Harrison Ave at E. Dedham St,42.339194,-71.06975,Boston,Yes,19,301
-71.06384031,42.34521562,C32057,Harrison Ave at Mullins Way,42.34521562,-71.06384031,Boston,Yes,19,302
-71.13022771,42.34953017,D32035,Harvard Ave at Brainerd Rd,42.34953017,-71.13022771,Boston,Yes,15,303
-71.12188071,42.3722168,M32016,Harvard Kennedy School at Bennett St / Eliot St,42.3722168,-71.12188071,Cambridge,Yes,23,304
-71.119945,42.379011,M32020,Harvard Law School at Mass Ave / Jarvis St,42.379011,-71.119945,Cambridge,Yes,19,305
-71.12098601,42.3733288,M32017,Harvard Square at Brattle St / Eliot St,42.3733288,-71.12098601,Cambridge,Yes,15,306
-71.118579,42.373268,M32018,Harvard Square at Mass Ave/ Dunster,42.373268,-71.118579,Cambridge,Yes,19,307
-71.12490356,42.34435176,K32017,Harvard St and Stedman St,42.34435176,-71.12490356,Brookline,Yes,15,308
-71.09522222,42.36599433,M32055,Harvard St at Greene-Rose Heritage Park,42.36599433,-71.09522222,Cambridge,Yes,19,309
-71.1242,42.368019,A32052,Harvard Stadium: N. Harvard St at Soldiers Field Rd,42.368019,-71.1242,Boston,Yes,15,310
-71.116865,42.377945,M32023,Harvard University / SEAS Cruft-Pierce Halls at 29 Oxford St,42.377945,-71.116865,Cambridge,Yes,17,311
-71.114025,42.376369,M32021,Harvard University Gund Hall at Quincy St / Kirkland St,42.376369,-71.114025,Cambridge,Yes,15,312
-71.114214,42.366621,M32014,Harvard University Housing - 115 Putnam Ave at Peabody Terrace,42.366621,-71.114214,Cambridge,Yes,15,313
-71.125107,42.380287,M32024,Harvard University Radcliffe Quadrangle at Shepard St / Garden St,42.380287,-71.125107,Cambridge,Yes,19,314
-71.11687034,42.36923907,M32038,Harvard University River Houses at DeWolfe St / Cowperthwaite St,42.36923907,-71.11687034,Cambridge,Yes,21,315
-70.8903331,42.5223714,T32008,Hawthorne Boulevard,42.5223714,-70.8903331,Salem,Yes,9,316
-71.12135231,42.32464511,K32010,High St at Cypress St,42.32464511,-71.12135231,Brookline,Yes,15,317
-71.10286117,42.33741748,B32003,HMS/HSPH - Avenue Louis Pasteur at Longwood Ave,42.33741748,-71.10286117,Boston,Yes,25,318
-71.0139,42.40741,R32006,Revere City Hall,42.40741,-71.0139,Revere,Yes,11,319
-71.008942,42.408088,R32007,Revere Public Library,42.408088,-71.008942,Revere,Yes,11,320
-71.129042,42.392766,M32036,Rindge Avenue - O'Neill Library,42.392766,-71.129042,Cambridge,Yes,19,321
-71.1100468,42.33661006,A32056,Riverway at Brookline Ave,42.33661006,-71.1100468,Boston,Yes,25,322
-71.07654601,42.36644674,M32035,Rogers St & Land Blvd,42.36644674,-71.07654601,Cambridge,Yes,19,323
-71.127754,42.287072,C32047,Roslindale Village - South St,42.287072,-71.127754,Boston,Yes,15,324
-71.12820532,42.28630716,C32046,Roslindale Village - Washington St,42.28630716,-71.12820532,Boston,Yes,15,325
-71.1145523,42.2645666,E32014,Ross Playground,42.2645666,-71.1145523,Boston,Yes,19,326
-71.050699,42.357143,D32008,Rowes Wharf at Atlantic Ave,42.357143,-71.050699,Boston,Yes,15,327
-71.095171,42.331184,C32001,Roxbury Crossing T Stop - Columbus Ave at Tremont St,42.331184,-71.095171,Boston,Yes,23,328
-71.08243078,42.31787329,B32022,Roxbury YMCA - Warren St at MLK Blvd,42.31787329,-71.08243078,Boston,Yes,10,329
-71.08798563,42.33624445,B32002,Ruggles T Stop - Columbus Ave at Melnea Cass Blvd,42.33624445,-71.08798563,Boston,Yes,26,330
-71.1108917,42.32760387,E32007,S Huntington Ave at Heath St,42.32760387,-71.1108917,Boston,Yes,15,331
-70.89684,42.523994,T32012,Salem MBTA - Lower Level,42.523994,-70.89684,Salem,Yes,11,332
-70.89611113,42.52345239,T32005,Salem MBTA - Washington at Federal St,42.52345239,-70.89611113,Salem,Yes,13,333
-70.89478076,42.50182399,T32007 ,Salem State University - Bike Path at Loring Ave,42.50182399,-70.89478076,Salem,Yes,15,334
-71.0539,42.3106,C32033,Savin Hill T Stop - S Sydney St at Bay St,42.3106,-71.0539,Boston,Yes,14,335
-71.04817357,42.35317809,C32036,Seaport Blvd at Sleeper St,42.35317809,-71.04817357,Boston,Yes,15,336
-71.04167744,42.34881026,B32014,Seaport Hotel - Congress St at Seaport Ln,42.34881026,-71.04167744,Boston,Yes,19,337
-71.04436085,42.35148193,B32007,Seaport Square - Seaport Blvd at Northern Ave,42.35148193,-71.04436085,Boston,Yes,23,338
-71.09930186,42.36860524,M32063,Sennott Park Broadway at Norfolk Street,42.36860524,-71.09930186,Cambridge,Yes,19,339
-71.08038157,42.33584613,D32059,Shawmut Ave at Lenox St,42.33584613,-71.08038157,Boston,Yes,19,340
-71.06559185,42.34854543,D32048,Shawmut Ave at Oak St W,42.34854543,-71.06559185,Boston,Yes,15,341
-71.06575,42.292917,E32009,Shawmut T Stop,42.292917,-71.06575,Boston,Yes,19,342
-70.88952363,42.51836788,T32003,Shetland Park - Congress at Peabody St,42.51836788,-70.88952363,Salem,Yes,11,343
-71.10393405,42.35775309,M32047,Sidney Research Campus/Erie Street at Waverly,42.35775309,-71.10393405,Cambridge,Yes,19,344
-71.10057592,42.349496,D32032,Silber Way,42.349496,-71.10057592,Boston,Yes,19,345
-71.15058332,42.39239749,M32069,Smith Pl at Wilson Rd,42.39239749,-71.15058332,Cambridge,Yes,19,346
-71.1182757,42.36426344,A32006,Soldiers Field Park - 111 Western Ave,42.36426344,-71.1182757,Boston,Yes,15,347
-71.09812,42.386844,S32001,Somerville City Hall,42.386844,-71.09812,Somerville,Yes,19,348
-71.09745376,42.39189812,S32036,Somerville City Hall Annex,42.39189812,-71.09745376,Somerville,Yes,19,349
-71.09601,42.3864,S32048,Somerville High School & Central Library,42.3864,-71.09601,Somerville,Yes,17,350
-71.10856622,42.39044622,S32020,Somerville Hospital,42.39044622,-71.10856622,Somerville,Yes,15,351
-71.03877,42.335741,C32017,South Boston Library - 646 E Broadway,42.335741,-71.03877,Boston,Yes,15,352
-71.076847,42.341332,A32009,South End Library - Tremont St at W Newton St,42.341332,-71.076847,Boston,Yes,15,353
-71.055547,42.352175,A32010,South Station - 700 Atlantic Ave,42.352175,-71.055547,Boston,Yes,47,354
-71.048927,42.378338,D32023,Spaulding Rehabilitation Hospital - Charlestown Navy Yard,42.378338,-71.048927,Boston,Yes,19,355
-71.16341468,42.27748444,C32087,Spring St at Powell St,42.27748444,-71.16341468,Boston,Yes,19,356
-71.10728681,42.34619708,K32007,St Mary's,42.34619708,-71.10728681,Brookline,Yes,15,357
-71.10124648,42.33329255,B32063,St. Alphonsus St at Tremont St,42.33329255,-71.10124648,Boston,Yes,18,358
-71.052608,42.344137,C32024,State Street at Channel Center,42.344137,-71.052608,Boston,Yes,19,359
-71.104374,42.316966,D32041,Stony Brook T Stop,42.316966,-71.104374,Boston,Yes,19,360
-71.07242074,42.34954403,D32049,Stuart St at Berkeley St,42.34954403,-71.07242074,Boston,Yes,19,361
-71.066289,42.351146,D32011,Stuart St at Charles St,42.351146,-71.066289,Boston,Yes,18,362
-71.07514855,42.38445226,D32053,Sullivan Square,42.38445226,-71.07514855,Boston,Yes,19,363
-70.99804848,42.40833706,R32001,Sumner St at Shirley Ave,42.40833706,-70.99804848,Revere,Yes,11,364
-71.052163,42.358155,A32013,Surface Rd at India St,42.358155,-71.052163,Boston,Yes,19,365
-71.05656401,42.3529457,A32042,Surface Rd at Summer St,42.3529457,-71.05656401,Boston,Yes,27,366
-71.05842225,42.41250451,V32007,Swan St. Park,42.41250451,-71.05842225,Everett,Yes,15,367
-71.05355408,42.32039374,C32064,Sydney St at Carson St,42.32039374,-71.05355408,Boston,Yes,19,368
-71.087111,42.2945833,C32043,Talbot Ave At Blue Hill Ave,42.2945833,-71.087111,Boston,Yes,15,369
-71.07797205,42.29225148,C32110,Talbot Ave T Station,42.29225148,-71.07797205,Boston,Yes,19,370
-71.12688361,42.33137017,K32008,Tappan St at Brookline Hills MBTA,42.33137017,-71.12688361,Brookline,Yes,15,371
-71.12590793,42.4008795,S32011,Teele Square,42.4008795,-71.12590793,Somerville,Yes,15,372
-71.09639924,42.31930943,E32011,The Dimock Center,42.31930943,-71.09639924,Boston,Yes,16,373
-71.044201,42.370744,A32033,The Eddy - New St at Sumner St,42.370744,-71.044201,Boston,Yes,15,374
-71.044024,42.344792,C32028,The Lawn on D,42.344792,-71.044024,Boston,Yes,19,375
-71.14549814,42.34679008,D32054,The Overlook at St. Gabriel's,42.34679008,-71.14549814,Boston,Yes,18,376
-71.08277142,42.36544486,M32048,Third at Binney,42.36544486,-71.08277142,Cambridge,Yes,15,377
-71.14456963,42.40016805,L32005,Thorndike Field at Minuteman Bikeway,42.40016805,-71.14456963,Arlington,Yes,11,378
-71.069616,42.345392,C32000,Tremont St at E Berkeley St,42.345392,-71.069616,Boston,Yes,19,379
-71.06166646,42.35668335,B32056,Tremont St at Hamilton Pl,42.35668335,-71.06166646,Boston,Yes,18,380
-71.0816905,42.3384318,C32056,Tremont St at Northampton St,42.3384318,-71.0816905,Boston,Yes,19,381
-71.07421449,42.34254914,C32060,Tremont St at W. Dedham St,42.34254914,-71.07421449,Boston,Yes,15,382
-71.063348,42.354979,D32014,Tremont St at West St,42.354979,-71.063348,Boston,Yes,15,383
-71.059624,42.359322,A32058,Tremont St. at Court St.,42.359322,-71.059624,,Yes,19,384
-71.062256,42.343749,C32035,Troy Boston,42.343749,-71.062256,Boston,Yes,5,385
-71.107833,42.398444,S32042,Trum Field @ Cedar St (Temp Winter Station),42.398444,-71.107833,Somerville,Yes,19,386
-71.106128,42.401697,F32003,Tufts Sq - Main St at Medford St,42.401697,-71.106128,Medford,Yes,11,387
-71.137313,42.353334,A32001,Union Square - Brighton Ave at Cambridge St,42.353334,-71.137313,Boston,Yes,19,388
-71.09540476,42.3796479,S32002,Union Square - Somerville,42.3796479,-71.09540476,Somerville,Yes,19,389
-71.090098,42.380078,S32041,Union Square East,42.380078,-71.090098,Somerville,Yes,19,390
-71.03648586,42.31218918,C32014,University of Massachusetts Boston - Campus Center,42.31218918,-71.03648586,Boston,Yes,19,391
-71.10006094,42.36264779,M32040,University Park,42.36264779,-71.10006094,Cambridge,Yes,19,392
-71.05934903,42.36473899,A32053,Valenti Way at Haverhill St,42.36473899,-71.05934903,Boston,Yes,24,393
-71.13775671,42.38536765,M32057,Vassal Lane at Tobin/VLUS,42.38536765,-71.13775671,Cambridge,Yes,19,394
-71.11305356,42.37250865,M32050,Verizon Innovation Hub 10 Ware Street,42.37250865,-71.11305356,Cambridge,Yes,19,395
-70.90166733,42.48628785,T32017,Vinnin Square,42.48628785,-70.90166733,Salem,Yes,11,396
-71.0514432,42.3391085,C32029,W Broadway at D St,42.3391085,-71.0514432,Boston,Yes,20,397
-71.046229,42.33595898,C32016,W Broadway at Dorchester St,42.33595898,-71.046229,Boston,Yes,17,398
-71.09616905,42.31242399,C32102,Walnut Ave at School St,42.31242399,-71.09616905,Boston,Yes,19,399
-71.060292,42.371848,D32021,Warren St at Chelsea St,42.371848,-71.060292,Boston,Yes,23,400
-71.13421171,42.33985827,K32011,Washington Sq,42.33985827,-71.13421171,Brookline,Yes,15,401
-71.08709779,42.38103732,S32043,Washington St @ New Washington St (Temp Winter Station),42.38103732,-71.08709779,Somerville,Yes,15,402
-71.16031677,42.34895285,D32029,Washington St at Brock St,42.34895285,-71.16031677,Boston,Yes,15,403
-71.19943707,42.35389024,N32001,Washington St at Crafts St,42.35389024,-71.19943707,Newton,Yes,11,404
-71.07903779,42.33509899,C32005,Washington St at Lenox St,42.33509899,-71.07903779,Boston,Yes,15,405
-71.081198,42.332817,B32026,Washington St at Melnea Cass Blvd,42.332817,-71.081198,Boston,Yes,19,406
-71.07404083,42.3385146,C32006,Washington St at Rutland St,42.3385146,-71.07404083,Boston,Yes,27,407
-71.071806,42.290333,C32038,Washington St at Talbot Ave,42.290333,-71.071806,Boston,Yes,17,408
-71.20764971,42.35145812,N32014,Washington St at Walnut St,42.35145812,-71.20764971,Newton,Yes,11,409
-71.0689044,42.34157472,D32002,Washington St at Waltham St,42.34157472,-71.0689044,Boston,Yes,15,410
-71.04569256,42.351586,C32034,Watermark Seaport - Boston Wharf Rd at Seaport Blvd,42.351586,-71.04569256,Boston,Yes,15,411
-71.18751436,42.36759308,W32005,Watertown City Hall,42.36759308,-71.18751436,Watertown,Yes,11,412
-71.18573324,42.36526032,W32002,Watertown Sq,42.36526032,-71.18573324,Watertown,Yes,15,413
-71.21382214,42.35410408,N32006,Watertown St at Albemarle Rd,42.35410408,-71.21382214,Newton,Yes,11,414
-71.07573182,42.4023682,V32014,Wellington MBTA,42.4023682,-71.07573182,Everett,Yes,19,415
-71.09627098,42.33758601,B32021,Wentworth Institute of Technology - Huntington Ave at Vancouver St,42.33758601,-71.09627098,Boston,Yes,12,416
-71.06446669,42.36590788,D32022,West End Park,42.36590788,-71.06446669,Boston,Yes,35,417
-71.22627497,42.3496005,N32005,West Newton,42.3496005,-71.22627497,Newton,Yes,15,418
-71.09218862,42.33286288,B32059,Whittier St Health Center,42.33286288,-71.09218862,Boston,Yes,19,419
-71.107669,42.306539,D32040,Williams St at Washington St,42.306539,-71.107669,Boston,Yes,23,420
-71.11412136,42.38567579,S32005,Wilson Square,42.38567579,-71.11412136,Somerville,Yes,15,421
